{
"type": "FeatureCollection",
"name": "sources",
"crs": { "type": "name", "properties": { "name": "urn:ogc:def:crs:OGC:1.3:CRS84" } },
"features": [
{ "type": "Feature", "properties": { "name": "National Institute for Japanese Literature", "url": "/en/kuronet", "count": "50", "addrtype": "place", "addrlocat": "city", "countn": 50, "lat": 35.7122827, "lon": 139.4066878 }, "geometry": { "type": "Point", "coordinates": [ 139.4066878, 35.7122827 ] } },
{ "type": "Feature", "properties": { "name": "Australia", "url": "/en/waves-of-words", "count": "30"}, "geometry": { "type": "Point", "coordinates": [ 149.124444, -35.308056 ] } },
{ "type": "Feature", "properties": { "name": "Indonesia", "url": "/en/waves-of-words", "count": "30"}, "geometry": { "type": "Point", "coordinates": [ 106.827778, -6.175 ] } },
{ "type": "Feature", "properties": { "name": "Vanuatu", "url": "/en/waves-of-words", "count": "30"}, "geometry": { "type": "Point", "coordinates": [ 163.7810775, -16.6116669 ] } },
{ "type": "Feature", "properties": { "name": "Papua New Guinea", "url": "/en/waves-of-words", "count": "30"}, "geometry": { "type": "Point", "coordinates": [ 147.149444, -9.478889 ] } },
{ "type": "Feature", "properties": { "name": "New Zealand", "url": "/en/waves-of-words", "count": "30"}, "geometry": { "type": "Point", "coordinates": [ 174.783333, -41.3 ] } },
{ "type": "Feature", "properties": { "name": "Hawaii", "url": "/en/waves-of-words", "count": "30"}, "geometry": { "type": "Point", "coordinates": [ -156.38612, 20.78785 ] } },
{ "type": "Feature", "properties": { "name": "Acehnese", "url": "/en/waves-of-words", "count": "30"}, "geometry": { "type": "Point", "coordinates": [ 96.6032, 3.90757 ] } },
{ "type": "Feature", "properties": { "name": "Arguni", "url": "/en/waves-of-words", "count": "30"}, "geometry": { "type": "Point", "coordinates": [ 132.556, -2.6458 ] } },
{ "type": "Feature", "properties": { "name": "Kahua", "url": "/en/waves-of-words", "count": "30"}, "geometry": { "type": "Point", "coordinates": [ 162.191, -10.6963 ] } },
{ "type": "Feature", "properties": { "name": "Axamb", "url": "/en/waves-of-words", "count": "30"}, "geometry": { "type": "Point", "coordinates": [ 167.707, -16.4838 ] } },
{ "type": "Feature", "properties": { "name": "Arosi", "url": "/en/waves-of-words", "count": "30"}, "geometry": { "type": "Point", "coordinates": [ 161.432, -10.2441 ] } },
{ "type": "Feature", "properties": { "name": "Amara", "url": "/en/waves-of-words", "count": "30"}, "geometry": { "type": "Point", "coordinates": [ 148.68, -5.55778 ] } },
{ "type": "Feature", "properties": { "name": "Angkola", "url": "/en/waves-of-words", "count": "30"}, "geometry": { "type": "Point", "coordinates": [ 99.6025, 1.66127 ] } },
{ "type": "Feature", "properties": { "name": "Anakalang", "url": "/en/waves-of-words", "count": "30"}, "geometry": { "type": "Point", "coordinates": [ 119.605, -9.63425 ] } },
{ "type": "Feature", "properties": { "name": "Araki", "url": "/en/waves-of-words", "count": "30"}, "geometry": { "type": "Point", "coordinates": [ 166.953, -15.633 ] } },
{ "type": "Feature", "properties": { "name": "Akolet", "url": "/en/waves-of-words", "count": "30"}, "geometry": { "type": "Point", "coordinates": [ 150.182, -6.22711 ] } },
{ "type": "Feature", "properties": { "name": "Amblong", "url": "/en/waves-of-words", "count": "30"}, "geometry": { "type": "Point", "coordinates": [ 166.95, -15.5169 ] } },
{ "type": "Feature", "properties": { "name": "Alune", "url": "/en/waves-of-words", "count": "30"}, "geometry": { "type": "Point", "coordinates": [ 128.394, -3.11477 ] } },
{ "type": "Feature", "properties": { "name": "Amurdak", "url": "/en/waves-of-words", "count": "30"}, "geometry": { "type": "Point", "coordinates": [ 132.878, -11.9876 ] } },
{ "type": "Feature", "properties": { "name": "Amahai", "url": "/en/waves-of-words", "count": "30"}, "geometry": { "type": "Point", "coordinates": [ 128.939, -3.32028 ] } },
{ "type": "Feature", "properties": { "name": "Ansus", "url": "/en/waves-of-words", "count": "30"}, "geometry": { "type": "Point", "coordinates": [ 135.866, -1.7543 ] } },
{ "type": "Feature", "properties": { "name": "Aore", "url": "/en/waves-of-words", "count": "30"}, "geometry": { "type": "Point", "coordinates": [ 167.166, -15.5753 ] } },
{ "type": "Feature", "properties": { "name": "Atoni", "url": "/en/waves-of-words", "count": "30"}, "geometry": { "type": "Point", "coordinates": [ 124.144, -9.77284 ] } },
{ "type": "Feature", "properties": { "name": "Sa'a", "url": "/en/waves-of-words", "count": "30"}, "geometry": { "type": "Point", "coordinates": [ 161.467, -9.60258 ] } },
{ "type": "Feature", "properties": { "name": "Apma", "url": "/en/waves-of-words", "count": "30"}, "geometry": { "type": "Point", "coordinates": [ 168.189, -15.8559 ] } },
{ "type": "Feature", "properties": { "name": "Aputai", "url": "/en/waves-of-words", "count": "30"}, "geometry": { "type": "Point", "coordinates": [ 126.496, -7.84732 ] } },
{ "type": "Feature", "properties": { "name": "Asilulu", "url": "/en/waves-of-words", "count": "30"}, "geometry": { "type": "Point", "coordinates": [ 127.952, -3.67302 ] } },
{ "type": "Feature", "properties": { "name": "As", "url": "/en/waves-of-words", "count": "30"}, "geometry": { "type": "Point", "coordinates": [ 131.728, -0.75267 ] } },
{ "type": "Feature", "properties": { "name": "Aneityum", "url": "/en/waves-of-words", "count": "30"}, "geometry": { "type": "Point", "coordinates": [ 169.825, -20.1864 ] } },
{ "type": "Feature", "properties": { "name": "Asumboa", "url": "/en/waves-of-words", "count": "30"}, "geometry": { "type": "Point", "coordinates": [ 166.499, -11.2969 ] } },
{ "type": "Feature", "properties": { "name": "Anuta", "url": "/en/waves-of-words", "count": "30"}, "geometry": { "type": "Point", "coordinates": [ 169.85, -11.61 ] } },
{ "type": "Feature", "properties": { "name": "Anuki", "url": "/en/waves-of-words", "count": "30"}, "geometry": { "type": "Point", "coordinates": [ 149.822, -9.6692 ] } },
{ "type": "Feature", "properties": { "name": "Aulua", "url": "/en/waves-of-words", "count": "30"}, "geometry": { "type": "Point", "coordinates": [ 167.697, -16.3579 ] } },
{ "type": "Feature", "properties": { "name": "Avau", "url": "/en/waves-of-words", "count": "30"}, "geometry": { "type": "Point", "coordinates": [ 150.427, -6.24342 ] } },
{ "type": "Feature", "properties": { "name": "Awa", "url": "/en/waves-of-words", "count": "30"}, "geometry": { "type": "Point", "coordinates": [ 145.714, -6.65534 ] } },
{ "type": "Feature", "properties": { "name": "Babatana", "url": "/en/waves-of-words", "count": "30"}, "geometry": { "type": "Point", "coordinates": [ 157.149, -7.22281 ] } },
{ "type": "Feature", "properties": { "name": "Batuley", "url": "/en/waves-of-words", "count": "30"}, "geometry": { "type": "Point", "coordinates": [ 134.784, -5.81441 ] } },
{ "type": "Feature", "properties": { "name": "Bariai", "url": "/en/waves-of-words", "count": "30"}, "geometry": { "type": "Point", "coordinates": [ 148.666, -5.5087 ] } },
{ "type": "Feature", "properties": { "name": "Bunama", "url": "/en/waves-of-words", "count": "30"}, "geometry": { "type": "Point", "coordinates": [ 151.066, -10.0761 ] } },
{ "type": "Feature", "properties": { "name": "Bajo", "url": "/en/waves-of-words", "count": "30"}, "geometry": { "type": "Point", "coordinates": [ 122.253, -3.68664 ] } },
{ "type": "Feature", "properties": { "name": "Bedoanas", "url": "/en/waves-of-words", "count": "30"}, "geometry": { "type": "Point", "coordinates": [ 132.566, -2.74438 ] } },
{ "type": "Feature", "properties": { "name": "Bebeli", "url": "/en/waves-of-words", "count": "30"}, "geometry": { "type": "Point", "coordinates": [ 150.323, -5.63282 ] } },
{ "type": "Feature", "properties": { "name": "Bughotu", "url": "/en/waves-of-words", "count": "30"}, "geometry": { "type": "Point", "coordinates": [ 159.802, -8.47948 ] } },
{ "type": "Feature", "properties": { "name": "Banggai ", "url": "/en/waves-of-words", "count": "30"}, "geometry": { "type": "Point", "coordinates": [ 123.171, -1.58305 ] } },
{ "type": "Feature", "properties": { "name": "Biga", "url": "/en/waves-of-words", "count": "30"}, "geometry": { "type": "Point", "coordinates": [ 130.272, -1.99574 ] } },
{ "type": "Feature", "properties": { "name": "Bima", "url": "/en/waves-of-words", "count": "30"}, "geometry": { "type": "Point", "coordinates": [ 118.445, -8.57376 ] } },
{ "type": "Feature", "properties": { "name": "Bipi", "url": "/en/waves-of-words", "count": "30"}, "geometry": { "type": "Point", "coordinates": [ 146.398, -2.11115 ] } },
{ "type": "Feature", "properties": { "name": "Barok", "url": "/en/waves-of-words", "count": "30"}, "geometry": { "type": "Point", "coordinates": [ 152.193, -3.47672 ] } },
{ "type": "Feature", "properties": { "name": "Bulu", "url": "/en/waves-of-words", "count": "30"}, "geometry": { "type": "Point", "coordinates": [ 150.101, -5.06134 ] } },
{ "type": "Feature", "properties": { "name": "Baki", "url": "/en/waves-of-words", "count": "30"}, "geometry": { "type": "Point", "coordinates": [ 168.165, -16.7096 ] } },
{ "type": "Feature", "properties": { "name": "Bungku", "url": "/en/waves-of-words", "count": "30"}, "geometry": { "type": "Point", "coordinates": [ 122.212, -3.22197 ] } },
{ "type": "Feature", "properties": { "name": "Buol", "url": "/en/waves-of-words", "count": "30"}, "geometry": { "type": "Point", "coordinates": [ 121.519, 0.97727 ] } },
{ "type": "Feature", "properties": { "name": "Blablanga", "url": "/en/waves-of-words", "count": "30"}, "geometry": { "type": "Point", "coordinates": [ 159.419, -8.15058 ] } },
{ "type": "Feature", "properties": { "name": "Ghayavi", "url": "/en/waves-of-words", "count": "30"}, "geometry": { "type": "Point", "coordinates": [ 149.84, -10.011 ] } },
{ "type": "Feature", "properties": { "name": "Bonerate", "url": "/en/waves-of-words", "count": "30"}, "geometry": { "type": "Point", "coordinates": [ 121.792, -7.37657 ] } },
{ "type": "Feature", "properties": { "name": "Masiwang", "url": "/en/waves-of-words", "count": "30"}, "geometry": { "type": "Point", "coordinates": [ 130.601, -3.29547 ] } },
{ "type": "Feature", "properties": { "name": "Bola", "url": "/en/waves-of-words", "count": "30"}, "geometry": { "type": "Point", "coordinates": [ 150.095, -5.55792 ] } },
{ "type": "Feature", "properties": { "name": "Bantik", "url": "/en/waves-of-words", "count": "30"}, "geometry": { "type": "Point", "coordinates": [ 124.846, 1.44586 ] } },
{ "type": "Feature", "properties": { "name": "Bahonsuai", "url": "/en/waves-of-words", "count": "30"}, "geometry": { "type": "Point", "coordinates": [ 121.707, -2.22572 ] } },
{ "type": "Feature", "properties": { "name": "Baetora", "url": "/en/waves-of-words", "count": "30"}, "geometry": { "type": "Point", "coordinates": [ 168.159, -15.2574 ] } },
{ "type": "Feature", "properties": { "name": "Bobot", "url": "/en/waves-of-words", "count": "30"}, "geometry": { "type": "Point", "coordinates": [ 130.179, -3.43514 ] } },
{ "type": "Feature", "properties": { "name": "Buginese", "url": "/en/waves-of-words", "count": "30"}, "geometry": { "type": "Point", "coordinates": [ 119.977, -4.47 ] } },
{ "type": "Feature", "properties": { "name": "Bukat", "url": "/en/waves-of-words", "count": "30"}, "geometry": { "type": "Point", "coordinates": [ 113.246, 1.29075 ] } },
{ "type": "Feature", "properties": { "name": "Burarra", "url": "/en/waves-of-words", "count": "30"}, "geometry": { "type": "Point", "coordinates": [ 134.365, -12.3061 ] } },
{ "type": "Feature", "properties": { "name": "Bwatoo", "url": "/en/waves-of-words", "count": "30"}, "geometry": { "type": "Point", "coordinates": [ 165.076, -21.3777 ] } },
{ "type": "Feature", "properties": { "name": "Buhutu", "url": "/en/waves-of-words", "count": "30"}, "geometry": { "type": "Point", "coordinates": [ 150.18, -10.5074 ] } },
{ "type": "Feature", "properties": { "name": "Andio", "url": "/en/waves-of-words", "count": "30"}, "geometry": { "type": "Point", "coordinates": [ 123.174, -0.88368 ] } },
{ "type": "Feature", "properties": { "name": "Buli", "url": "/en/waves-of-words", "count": "30"}, "geometry": { "type": "Point", "coordinates": [ 128.443, 1.0008 ] } },
{ "type": "Feature", "properties": { "name": "Carolinian", "url": "/en/waves-of-words", "count": "30"}, "geometry": { "type": "Point", "coordinates": [ 145.765, 15.205 ] } },
{ "type": "Feature", "properties": { "name": "Chamorro", "url": "/en/waves-of-words", "count": "30"}, "geometry": { "type": "Point", "coordinates": [ 144.745, 13.438 ] } },
{ "type": "Feature", "properties": { "name": "Chuukese", "url": "/en/waves-of-words", "count": "30"}, "geometry": { "type": "Point", "coordinates": [ 151.599, 7.34699 ] } },
{ "type": "Feature", "properties": { "name": "Lonwolwol", "url": "/en/waves-of-words", "count": "30"}, "geometry": { "type": "Point", "coordinates": [ 168.016, -16.2286 ] } },
{ "type": "Feature", "properties": { "name": "Dawera-Daweloor", "url": "/en/waves-of-words", "count": "30"}, "geometry": { "type": "Point", "coordinates": [ 130.06, -7.76324 ] } },
{ "type": "Feature", "properties": { "name": "Dai", "url": "/en/waves-of-words", "count": "30"}, "geometry": { "type": "Point", "coordinates": [ 129.687, -7.55894 ] } },
{ "type": "Feature", "properties": { "name": "Dixon Reef", "url": "/en/waves-of-words", "count": "30"}, "geometry": { "type": "Point", "coordinates": [ 167.516, -16.3267 ] } },
{ "type": "Feature", "properties": { "name": "Dobu", "url": "/en/waves-of-words", "count": "30"}, "geometry": { "type": "Point", "coordinates": [ 150.825, -9.63239 ] } },
{ "type": "Feature", "properties": { "name": "Dori'o", "url": "/en/waves-of-words", "count": "30"}, "geometry": { "type": "Point", "coordinates": [ 160.897, -9.11536 ] } },
{ "type": "Feature", "properties": { "name": "Dusner", "url": "/en/waves-of-words", "count": "30"}, "geometry": { "type": "Point", "coordinates": [ 134.391, -2.73859 ] } },
{ "type": "Feature", "properties": { "name": "Drubea", "url": "/en/waves-of-words", "count": "30"}, "geometry": { "type": "Point", "coordinates": [ 166.531, -22.0947 ] } },
{ "type": "Feature", "properties": { "name": "Dawawa", "url": "/en/waves-of-words", "count": "30"}, "geometry": { "type": "Point", "coordinates": [ 149.999, -10.1692 ] } },
{ "type": "Feature", "properties": { "name": "Emplawas", "url": "/en/waves-of-words", "count": "30"}, "geometry": { "type": "Point", "coordinates": [ 129.721, -8.03209 ] } },
{ "type": "Feature", "properties": { "name": "Ende", "url": "/en/waves-of-words", "count": "30"}, "geometry": { "type": "Point", "coordinates": [ 121.555, -8.70998 ] } },
{ "type": "Feature", "properties": { "name": "Enggano", "url": "/en/waves-of-words", "count": "30"}, "geometry": { "type": "Point", "coordinates": [ 102.245, -5.38846 ] } },
{ "type": "Feature", "properties": { "name": "Sie", "url": "/en/waves-of-words", "count": "30"}, "geometry": { "type": "Point", "coordinates": [ 169.166, -18.8181 ] } },
{ "type": "Feature", "properties": { "name": "Erokwanas", "url": "/en/waves-of-words", "count": "30"}, "geometry": { "type": "Point", "coordinates": [ 132.705, -2.83746 ] } },
{ "type": "Feature", "properties": { "name": "Eton", "url": "/en/waves-of-words", "count": "30"}, "geometry": { "type": "Point", "coordinates": [ 168.549, -17.74 ] } },
{ "type": "Feature", "properties": { "name": "Fagani", "url": "/en/waves-of-words", "count": "30"}, "geometry": { "type": "Point", "coordinates": [ 161.662, -10.4479 ] } },
{ "type": "Feature", "properties": { "name": "Fataleka", "url": "/en/waves-of-words", "count": "30"}, "geometry": { "type": "Point", "coordinates": [ 160.861, -8.59041 ] } },
{ "type": "Feature", "properties": { "name": "Fordata", "url": "/en/waves-of-words", "count": "30"}, "geometry": { "type": "Point", "coordinates": [ 131.511, -7.28902 ] } },
{ "type": "Feature", "properties": { "name": "Fortsenal", "url": "/en/waves-of-words", "count": "30"}, "geometry": { "type": "Point", "coordinates": [ 166.931, -15.4484 ] } },
{ "type": "Feature", "properties": { "name": "East Futuna", "url": "/en/waves-of-words", "count": "30"}, "geometry": { "type": "Point", "coordinates": [ -178.137, -14.2787 ] } },
{ "type": "Feature", "properties": { "name": "Futuna-Aniwa", "url": "/en/waves-of-words", "count": "30"}, "geometry": { "type": "Point", "coordinates": [ 170.215, -19.5303 ] } },
{ "type": "Feature", "properties": { "name": "Gayo", "url": "/en/waves-of-words", "count": "30"}, "geometry": { "type": "Point", "coordinates": [ 97.3456, 4.3733 ] } },
{ "type": "Feature", "properties": { "name": "Gedaged", "url": "/en/waves-of-words", "count": "30"}, "geometry": { "type": "Point", "coordinates": [ 145.781, -5.18175 ] } },
{ "type": "Feature", "properties": { "name": "Patpatar", "url": "/en/waves-of-words", "count": "30"}, "geometry": { "type": "Point", "coordinates": [ 152.493, -3.74711 ] } },
{ "type": "Feature", "properties": { "name": "Gitua", "url": "/en/waves-of-words", "count": "30"}, "geometry": { "type": "Point", "coordinates": [ 147.485, -6.0151 ] } },
{ "type": "Feature", "properties": { "name": "Ghanongga", "url": "/en/waves-of-words", "count": "30"}, "geometry": { "type": "Point", "coordinates": [ 156.552, -8.02035 ] } },
{ "type": "Feature", "properties": { "name": "Kiribati", "url": "/en/waves-of-words", "count": "30"}, "geometry": { "type": "Point", "coordinates": [ 176.44, -1.34 ] } },
{ "type": "Feature", "properties": { "name": "Ghari", "url": "/en/waves-of-words", "count": "30"}, "geometry": { "type": "Point", "coordinates": [ 159.917, -9.4791 ] } },
{ "type": "Feature", "properties": { "name": "Gumawana", "url": "/en/waves-of-words", "count": "30"}, "geometry": { "type": "Point", "coordinates": [ 150.762, -9.28497 ] } },
{ "type": "Feature", "properties": { "name": "Gane", "url": "/en/waves-of-words", "count": "30"}, "geometry": { "type": "Point", "coordinates": [ 127.976, -0.42618 ] } },
{ "type": "Feature", "properties": { "name": "Hewa", "url": "/en/waves-of-words", "count": "30"}, "geometry": { "type": "Point", "coordinates": [ 142.551, -5.03635 ] } },
{ "type": "Feature", "properties": { "name": "Hiw", "url": "/en/waves-of-words", "count": "30"}, "geometry": { "type": "Point", "coordinates": [ 166.556, -13.1391 ] } },
{ "type": "Feature", "properties": { "name": "Hoava", "url": "/en/waves-of-words", "count": "30"}, "geometry": { "type": "Point", "coordinates": [ 157.595, -8.19679 ] } },
{ "type": "Feature", "properties": { "name": "Hula", "url": "/en/waves-of-words", "count": "30"}, "geometry": { "type": "Point", "coordinates": [ 147.705, -9.99427 ] } },
{ "type": "Feature", "properties": { "name": "Haveke", "url": "/en/waves-of-words", "count": "30"}, "geometry": { "type": "Point", "coordinates": [ 164.753, -21.0249 ] } },
{ "type": "Feature", "properties": { "name": "Iaai", "url": "/en/waves-of-words", "count": "30"}, "geometry": { "type": "Point", "coordinates": [ 166.59, -20.6301 ] } },
{ "type": "Feature", "properties": { "name": "Iwaidja", "url": "/en/waves-of-words", "count": "30"}, "geometry": { "type": "Point", "coordinates": [ 132.453, -11.3379 ] } },
{ "type": "Feature", "properties": { "name": "Garig", "url": "/en/waves-of-words", "count": "30"}, "geometry": { "type": "Point", "coordinates": [ 132.182, -11.412 ] } },
{ "type": "Feature", "properties": { "name": "Imroing", "url": "/en/waves-of-words", "count": "30"}, "geometry": { "type": "Point", "coordinates": [ 129.651, -7.96772 ] } },
{ "type": "Feature", "properties": { "name": "Indonesian", "url": "/en/waves-of-words", "count": "30"}, "geometry": { "type": "Point", "coordinates": [ 109.716, -7.33458 ] } },
{ "type": "Feature", "properties": { "name": "Irarutu", "url": "/en/waves-of-words", "count": "30"}, "geometry": { "type": "Point", "coordinates": [ 133.586, -2.94438 ] } },
{ "type": "Feature", "properties": { "name": "Yabem", "url": "/en/waves-of-words", "count": "30"}, "geometry": { "type": "Point", "coordinates": [ 147.81, -6.67052 ] } },
{ "type": "Feature", "properties": { "name": "Javanese", "url": "/en/waves-of-words", "count": "30"}, "geometry": { "type": "Point", "coordinates": [ 110.885, -0.572307 ] } },
{ "type": "Feature", "properties": { "name": "Jawe", "url": "/en/waves-of-words", "count": "30"}, "geometry": { "type": "Point", "coordinates": [ 164.676, -20.6648 ] } },
{ "type": "Feature", "properties": { "name": "Yamdena", "url": "/en/waves-of-words", "count": "30"}, "geometry": { "type": "Point", "coordinates": [ 131.44, -7.73722 ] } },
{ "type": "Feature", "properties": { "name": "Kala", "url": "/en/waves-of-words", "count": "30"}, "geometry": { "type": "Point", "coordinates": [ 147.173, -7.47103 ] } },
{ "type": "Feature", "properties": { "name": "Kawe", "url": "/en/waves-of-words", "count": "30"}, "geometry": { "type": "Point", "coordinates": [ 130.327, -0.17313 ] } },
{ "type": "Feature", "properties": { "name": "Komering", "url": "/en/waves-of-words", "count": "30"}, "geometry": { "type": "Point", "coordinates": [ 105.107, -3.79215 ] } },
{ "type": "Feature", "properties": { "name": "Kilivila", "url": "/en/waves-of-words", "count": "30"}, "geometry": { "type": "Point", "coordinates": [ 151.072, -8.72574 ] } },
{ "type": "Feature", "properties": { "name": "Kis", "url": "/en/waves-of-words", "count": "30"}, "geometry": { "type": "Point", "coordinates": [ 143.96, -3.83909 ] } },
{ "type": "Feature", "properties": { "name": "Kisar", "url": "/en/waves-of-words", "count": "30"}, "geometry": { "type": "Point", "coordinates": [ 127.18, -8.05122 ] } },
{ "type": "Feature", "properties": { "name": "Kokota", "url": "/en/waves-of-words", "count": "30"}, "geometry": { "type": "Point", "coordinates": [ 159.191, -8.16481 ] } },
{ "type": "Feature", "properties": { "name": "Maskelynes", "url": "/en/waves-of-words", "count": "30"}, "geometry": { "type": "Point", "coordinates": [ 167.818, -16.5073 ] } },
{ "type": "Feature", "properties": { "name": "Koluwawa", "url": "/en/waves-of-words", "count": "30"}, "geometry": { "type": "Point", "coordinates": [ 150.462, -9.42742 ] } },
{ "type": "Feature", "properties": { "name": "Kodi", "url": "/en/waves-of-words", "count": "30"}, "geometry": { "type": "Point", "coordinates": [ 119.114, -9.6373 ] } },
{ "type": "Feature", "properties": { "name": "Kapingamarangi", "url": "/en/waves-of-words", "count": "30"}, "geometry": { "type": "Point", "coordinates": [ 154.797, 1.03917 ] } },
{ "type": "Feature", "properties": { "name": "Kandas", "url": "/en/waves-of-words", "count": "30"}, "geometry": { "type": "Point", "coordinates": [ 152.781, -4.3652 ] } },
{ "type": "Feature", "properties": { "name": "Koro", "url": "/en/waves-of-words", "count": "30"}, "geometry": { "type": "Point", "coordinates": [ 167.467, -14.2943 ] } },
{ "type": "Feature", "properties": { "name": "Kuni", "url": "/en/waves-of-words", "count": "30"}, "geometry": { "type": "Point", "coordinates": [ 146.874, -8.66368 ] } },
{ "type": "Feature", "properties": { "name": "Kusaghe", "url": "/en/waves-of-words", "count": "30"}, "geometry": { "type": "Point", "coordinates": [ 157.463, -8.04056 ] } },
{ "type": "Feature", "properties": { "name": "Kove", "url": "/en/waves-of-words", "count": "30"}, "geometry": { "type": "Point", "coordinates": [ 149.63, -5.58623 ] } },
{ "type": "Feature", "properties": { "name": "Kerinci", "url": "/en/waves-of-words", "count": "30"}, "geometry": { "type": "Point", "coordinates": [ 101.403, -1.93668 ] } },
{ "type": "Feature", "properties": { "name": "Kola", "url": "/en/waves-of-words", "count": "30"}, "geometry": { "type": "Point", "coordinates": [ 134.592, -5.48833 ] } },
{ "type": "Feature", "properties": { "name": "Kwaio", "url": "/en/waves-of-words", "count": "30"}, "geometry": { "type": "Point", "coordinates": [ 160.965, -8.93744 ] } },
{ "type": "Feature", "properties": { "name": "Kairiru", "url": "/en/waves-of-words", "count": "30"}, "geometry": { "type": "Point", "coordinates": [ 143.558, -3.34608 ] } },
{ "type": "Feature", "properties": { "name": "Kazukuru", "url": "/en/waves-of-words", "count": "30"}, "geometry": { "type": "Point", "coordinates": [ 157.687, -8.23886 ] } },
{ "type": "Feature", "properties": { "name": "Kaidipang", "url": "/en/waves-of-words", "count": "30"}, "geometry": { "type": "Point", "coordinates": [ 123.217, 0.85641 ] } },
{ "type": "Feature", "properties": { "name": "Label", "url": "/en/waves-of-words", "count": "30"}, "geometry": { "type": "Point", "coordinates": [ 152.678, -4.46971 ] } },
{ "type": "Feature", "properties": { "name": "Wampar", "url": "/en/waves-of-words", "count": "30"}, "geometry": { "type": "Point", "coordinates": [ 146.662, -6.67364 ] } },
{ "type": "Feature", "properties": { "name": "Tolaki", "url": "/en/waves-of-words", "count": "30"}, "geometry": { "type": "Point", "coordinates": [ 121.888, -4.03577 ] } },
{ "type": "Feature", "properties": { "name": "Leipon", "url": "/en/waves-of-words", "count": "30"}, "geometry": { "type": "Point", "coordinates": [ 147.226, -1.9665 ] } },
{ "type": "Feature", "properties": { "name": "Luang", "url": "/en/waves-of-words", "count": "30"}, "geometry": { "type": "Point", "coordinates": [ 127.944, -8.18378 ] } },
{ "type": "Feature", "properties": { "name": "Lungga", "url": "/en/waves-of-words", "count": "30"}, "geometry": { "type": "Point", "coordinates": [ 156.573, -8.17469 ] } },
{ "type": "Feature", "properties": { "name": "Neverver", "url": "/en/waves-of-words", "count": "30"}, "geometry": { "type": "Point", "coordinates": [ 167.499, -16.1986 ] } },
{ "type": "Feature", "properties": { "name": "Lengo", "url": "/en/waves-of-words", "count": "30"}, "geometry": { "type": "Point", "coordinates": [ 160.42, -9.56425 ] } },
{ "type": "Feature", "properties": { "name": "Longgu", "url": "/en/waves-of-words", "count": "30"}, "geometry": { "type": "Point", "coordinates": [ 160.663, -9.75258 ] } },
{ "type": "Feature", "properties": { "name": "Likum", "url": "/en/waves-of-words", "count": "30"}, "geometry": { "type": "Point", "coordinates": [ 146.695, -2.16157 ] } },
{ "type": "Feature", "properties": { "name": "Nyindrou", "url": "/en/waves-of-words", "count": "30"}, "geometry": { "type": "Point", "coordinates": [ 146.627, -2.1143 ] } },
{ "type": "Feature", "properties": { "name": "Lau", "url": "/en/waves-of-words", "count": "30"}, "geometry": { "type": "Point", "coordinates": [ 160.872, -8.51018 ] } },
{ "type": "Feature", "properties": { "name": "Merei", "url": "/en/waves-of-words", "count": "30"}, "geometry": { "type": "Point", "coordinates": [ 166.905, -15.2839 ] } },
{ "type": "Feature", "properties": { "name": "Lamenu", "url": "/en/waves-of-words", "count": "30"}, "geometry": { "type": "Point", "coordinates": [ 168.171, -16.6098 ] } },
{ "type": "Feature", "properties": { "name": "Lamboya", "url": "/en/waves-of-words", "count": "30"}, "geometry": { "type": "Point", "coordinates": [ 119.344, -9.70434 ] } },
{ "type": "Feature", "properties": { "name": "Lorediakarkar", "url": "/en/waves-of-words", "count": "30"}, "geometry": { "type": "Point", "coordinates": [ 167.166, -15.3348 ] } },
{ "type": "Feature", "properties": { "name": "Lou", "url": "/en/waves-of-words", "count": "30"}, "geometry": { "type": "Point", "coordinates": [ 147.346, -2.38659 ] } },
{ "type": "Feature", "properties": { "name": "Loniu", "url": "/en/waves-of-words", "count": "30"}, "geometry": { "type": "Point", "coordinates": [ 147.35, -2.06124 ] } },
{ "type": "Feature", "properties": { "name": "Lelepa", "url": "/en/waves-of-words", "count": "30"}, "geometry": { "type": "Point", "coordinates": [ 168.202, -17.6042 ] } },
{ "type": "Feature", "properties": { "name": "Larevat", "url": "/en/waves-of-words", "count": "30"}, "geometry": { "type": "Point", "coordinates": [ 167.387, -16.1971 ] } },
{ "type": "Feature", "properties": { "name": "Lemerig", "url": "/en/waves-of-words", "count": "30"}, "geometry": { "type": "Point", "coordinates": [ 167.436, -13.7427 ] } },
{ "type": "Feature", "properties": { "name": "Litzlitz", "url": "/en/waves-of-words", "count": "30"}, "geometry": { "type": "Point", "coordinates": [ 167.415, -16.1331 ] } },
{ "type": "Feature", "properties": { "name": "Arʃa", "url": "/en/waves-of-words", "count": "30"}, "geometry": { "type": "Point", "coordinates": [ 167.73, 8.72 ] } },
{ "type": "Feature", "properties": { "name": "Makassarese", "url": "/en/waves-of-words", "count": "30"}, "geometry": { "type": "Point", "coordinates": [ 119.838, -5.65551 ] } },
{ "type": "Feature", "properties": { "name": "Mangseng", "url": "/en/waves-of-words", "count": "30"}, "geometry": { "type": "Point", "coordinates": [ 150.68, -5.89752 ] } },
{ "type": "Feature", "properties": { "name": "Maisin", "url": "/en/waves-of-words", "count": "30"}, "geometry": { "type": "Point", "coordinates": [ 148.731, -9.22853 ] } },
{ "type": "Feature", "properties": { "name": "Mengen", "url": "/en/waves-of-words", "count": "30"}, "geometry": { "type": "Point", "coordinates": [ 151.373, -5.47036 ] } },
{ "type": "Feature", "properties": { "name": "Mekeo", "url": "/en/waves-of-words", "count": "30"}, "geometry": { "type": "Point", "coordinates": [ 146.586, -8.23853 ] } },
{ "type": "Feature", "properties": { "name": "Motu", "url": "/en/waves-of-words", "count": "30"}, "geometry": { "type": "Point", "coordinates": [ 147.424, -9.67492 ] } },
{ "type": "Feature", "properties": { "name": "Margu", "url": "/en/waves-of-words", "count": "30"}, "geometry": { "type": "Point", "coordinates": [ 132.587, -11.1823 ] } },
{ "type": "Feature", "properties": { "name": "Ma'anyan", "url": "/en/waves-of-words", "count": "30"}, "geometry": { "type": "Point", "coordinates": [ 115.092, -2.1239 ] } },
{ "type": "Feature", "properties": { "name": "Mor", "url": "/en/waves-of-words", "count": "30"}, "geometry": { "type": "Point", "coordinates": [ 135.95, -2.87055 ] } },
{ "type": "Feature", "properties": { "name": "Minangkabau", "url": "/en/waves-of-words", "count": "30"}, "geometry": { "type": "Point", "coordinates": [ 96.25, 4.17 ] } },
{ "type": "Feature", "properties": { "name": "Matukar", "url": "/en/waves-of-words", "count": "30"}, "geometry": { "type": "Point", "coordinates": [ 145.779, -4.9078 ] } },
{ "type": "Feature", "properties": { "name": "Mafea", "url": "/en/waves-of-words", "count": "30"}, "geometry": { "type": "Point", "coordinates": [ 167.241, -15.4316 ] } },
{ "type": "Feature", "properties": { "name": "Malua Bay", "url": "/en/waves-of-words", "count": "30"}, "geometry": { "type": "Point", "coordinates": [ 167.208, -15.9813 ] } },
{ "type": "Feature", "properties": { "name": "Malango", "url": "/en/waves-of-words", "count": "30"}, "geometry": { "type": "Point", "coordinates": [ 160.118, -9.61383 ] } },
{ "type": "Feature", "properties": { "name": "Mwotlap", "url": "/en/waves-of-words", "count": "30"}, "geometry": { "type": "Point", "coordinates": [ 167.673, -13.6535 ] } },
{ "type": "Feature", "properties": { "name": "Mae", "url": "/en/waves-of-words", "count": "30"}, "geometry": { "type": "Point", "coordinates": [ 167.288, -15.9914 ] } },
{ "type": "Feature", "properties": { "name": "Maii", "url": "/en/waves-of-words", "count": "30"}, "geometry": { "type": "Point", "coordinates": [ 168.211, -16.7388 ] } },
{ "type": "Feature", "properties": { "name": "Malalamai", "url": "/en/waves-of-words", "count": "30"}, "geometry": { "type": "Point", "coordinates": [ 146.642, -5.77495 ] } },
{ "type": "Feature", "properties": { "name": "Emae", "url": "/en/waves-of-words", "count": "30"}, "geometry": { "type": "Point", "coordinates": [ 168.399, -17.052 ] } },
{ "type": "Feature", "properties": { "name": "Madak", "url": "/en/waves-of-words", "count": "30"}, "geometry": { "type": "Point", "coordinates": [ 151.967, -3.34342 ] } },
{ "type": "Feature", "properties": { "name": "Tiale", "url": "/en/waves-of-words", "count": "30"}, "geometry": { "type": "Point", "coordinates": [ 166.842, -15.2334 ] } },
{ "type": "Feature", "properties": { "name": "Molima", "url": "/en/waves-of-words", "count": "30"}, "geometry": { "type": "Point", "coordinates": [ 150.614, -9.57457 ] } },
{ "type": "Feature", "properties": { "name": "Mawng", "url": "/en/waves-of-words", "count": "30"}, "geometry": { "type": "Point", "coordinates": [ 133.185, -11.8393 ] } },
{ "type": "Feature", "properties": { "name": "Mindiri", "url": "/en/waves-of-words", "count": "30"}, "geometry": { "type": "Point", "coordinates": [ 146.138, -5.54613 ] } },
{ "type": "Feature", "properties": { "name": "Vangunu", "url": "/en/waves-of-words", "count": "30"}, "geometry": { "type": "Point", "coordinates": [ 157.997, -8.66826 ] } },
{ "type": "Feature", "properties": { "name": "Moronene", "url": "/en/waves-of-words", "count": "30"}, "geometry": { "type": "Point", "coordinates": [ 121.824, -4.62361 ] } },
{ "type": "Feature", "properties": { "name": "Manggarai", "url": "/en/waves-of-words", "count": "30"}, "geometry": { "type": "Point", "coordinates": [ 120.329, -8.55748 ] } },
{ "type": "Feature", "properties": { "name": "Marino", "url": "/en/waves-of-words", "count": "30"}, "geometry": { "type": "Point", "coordinates": [ 168.12, -14.9738 ] } },
{ "type": "Feature", "properties": { "name": "Maori", "url": "/en/waves-of-words", "count": "30"}, "geometry": { "type": "Point", "coordinates": [ 176.541, -38.2881 ] } },
{ "type": "Feature", "properties": { "name": "Cheke Holo", "url": "/en/waves-of-words", "count": "30"}, "geometry": { "type": "Point", "coordinates": [ 159.625, -8.27055 ] } },
{ "type": "Feature", "properties": { "name": "Morouas", "url": "/en/waves-of-words", "count": "30"}, "geometry": { "type": "Point", "coordinates": [ 166.891, -15.3498 ] } },
{ "type": "Feature", "properties": { "name": "Maragus", "url": "/en/waves-of-words", "count": "30"}, "geometry": { "type": "Point", "coordinates": [ 167.33, -16.0695 ] } },
{ "type": "Feature", "properties": { "name": "Mangareva", "url": "/en/waves-of-words", "count": "30"}, "geometry": { "type": "Point", "coordinates": [ -134.97, -23.1095 ] } },
{ "type": "Feature", "properties": { "name": "Caac", "url": "/en/waves-of-words", "count": "30"}, "geometry": { "type": "Point", "coordinates": [ 164.578, -20.4114 ] } },
{ "type": "Feature", "properties": { "name": "Mono", "url": "/en/waves-of-words", "count": "30"}, "geometry": { "type": "Point", "coordinates": [ 155.76, -7.05102 ] } },
{ "type": "Feature", "properties": { "name": "Mota", "url": "/en/waves-of-words", "count": "30"}, "geometry": { "type": "Point", "coordinates": [ 167.695, -13.8485 ] } },
{ "type": "Feature", "properties": { "name": "Manam", "url": "/en/waves-of-words", "count": "30"}, "geometry": { "type": "Point", "coordinates": [ 145.033, -4.07921 ] } },
{ "type": "Feature", "properties": { "name": "Mamboru", "url": "/en/waves-of-words", "count": "30"}, "geometry": { "type": "Point", "coordinates": [ 119.55, -9.42302 ] } },
{ "type": "Feature", "properties": { "name": "Minaveha", "url": "/en/waves-of-words", "count": "30"}, "geometry": { "type": "Point", "coordinates": [ 150.501, -9.59922 ] } },
{ "type": "Feature", "properties": { "name": "Marovo", "url": "/en/waves-of-words", "count": "30"}, "geometry": { "type": "Point", "coordinates": [ 157.747, -8.37943 ] } },
{ "type": "Feature", "properties": { "name": "Mpotovoro", "url": "/en/waves-of-words", "count": "30"}, "geometry": { "type": "Point", "coordinates": [ 167.232, -15.8988 ] } },
{ "type": "Feature", "properties": { "name": "Mentawai", "url": "/en/waves-of-words", "count": "30"}, "geometry": { "type": "Point", "coordinates": [ 98.9401, -1.41092 ] } },
{ "type": "Feature", "properties": { "name": "Modang", "url": "/en/waves-of-words", "count": "30"}, "geometry": { "type": "Point", "coordinates": [ 116.573, 0.80793 ] } },
{ "type": "Feature", "properties": { "name": "Meramera", "url": "/en/waves-of-words", "count": "30"}, "geometry": { "type": "Point", "coordinates": [ 151.528, -4.97468 ] } },
{ "type": "Feature", "properties": { "name": "Muyuw", "url": "/en/waves-of-words", "count": "30"}, "geometry": { "type": "Point", "coordinates": [ 152.731, -9.195 ] } },
{ "type": "Feature", "properties": { "name": "Nalik", "url": "/en/waves-of-words", "count": "30"}, "geometry": { "type": "Point", "coordinates": [ 151.332, -2.94411 ] } },
{ "type": "Feature", "properties": { "name": "Ponam", "url": "/en/waves-of-words", "count": "30"}, "geometry": { "type": "Point", "coordinates": [ 146.887, -1.91705 ] } },
{ "type": "Feature", "properties": { "name": "Notsi", "url": "/en/waves-of-words", "count": "30"}, "geometry": { "type": "Point", "coordinates": [ 151.661, -3.0557 ] } },
{ "type": "Feature", "properties": { "name": "Nauna", "url": "/en/waves-of-words", "count": "30"}, "geometry": { "type": "Point", "coordinates": [ 148.201, -2.21213 ] } },
{ "type": "Feature", "properties": { "name": "Neku", "url": "/en/waves-of-words", "count": "30"}, "geometry": { "type": "Point", "coordinates": [ 165.578, -21.6524 ] } },
{ "type": "Feature", "properties": { "name": "Nengone", "url": "/en/waves-of-words", "count": "30"}, "geometry": { "type": "Point", "coordinates": [ 167.964, -21.5305 ] } },
{ "type": "Feature", "properties": { "name": "Äiwoo", "url": "/en/waves-of-words", "count": "30"}, "geometry": { "type": "Point", "coordinates": [ 166.329, -10.2826 ] } },
{ "type": "Feature", "properties": { "name": "Nias", "url": "/en/waves-of-words", "count": "30"}, "geometry": { "type": "Point", "coordinates": [ 97.4961, 0.90691 ] } },
{ "type": "Feature", "properties": { "name": "Nila", "url": "/en/waves-of-words", "count": "30"}, "geometry": { "type": "Point", "coordinates": [ 128.966, -3.21229 ] } },
{ "type": "Feature", "properties": { "name": "Niue", "url": "/en/waves-of-words", "count": "30"}, "geometry": { "type": "Point", "coordinates": [ -169.86, -19.06 ] } },
{ "type": "Feature", "properties": { "name": "Nokuku", "url": "/en/waves-of-words", "count": "30"}, "geometry": { "type": "Point", "coordinates": [ 166.603, -14.8974 ] } },
{ "type": "Feature", "properties": { "name": "Nukuoro", "url": "/en/waves-of-words", "count": "30"}, "geometry": { "type": "Point", "coordinates": [ 154.975, 3.84 ] } },
{ "type": "Feature", "properties": { "name": "Letemboi", "url": "/en/waves-of-words", "count": "30"}, "geometry": { "type": "Point", "coordinates": [ 167.566, -16.4339 ] } },
{ "type": "Feature", "properties": { "name": "Nimoa", "url": "/en/waves-of-words", "count": "30"}, "geometry": { "type": "Point", "coordinates": [ 153.158, -11.2297 ] } },
{ "type": "Feature", "properties": { "name": "Narango", "url": "/en/waves-of-words", "count": "30"}, "geometry": { "type": "Point", "coordinates": [ 167.047, -15.5259 ] } },
{ "type": "Feature", "properties": { "name": "Lala", "url": "/en/waves-of-words", "count": "30"}, "geometry": { "type": "Point", "coordinates": [ 146.749, -8.93195 ] } },
{ "type": "Feature", "properties": { "name": "Nehan", "url": "/en/waves-of-words", "count": "30"}, "geometry": { "type": "Point", "coordinates": [ 154.2, -4.56875 ] } },
{ "type": "Feature", "properties": { "name": "Navut", "url": "/en/waves-of-words", "count": "30"}, "geometry": { "type": "Point", "coordinates": [ 166.798, -15.3169 ] } },
{ "type": "Feature", "properties": { "name": "Niuafo'ou", "url": "/en/waves-of-words", "count": "30"}, "geometry": { "type": "Point", "coordinates": [ -175.64, -15.6014 ] } },
{ "type": "Feature", "properties": { "name": "Southwest Tanna", "url": "/en/waves-of-words", "count": "30"}, "geometry": { "type": "Point", "coordinates": [ 169.356, -19.5795 ] } },
{ "type": "Feature", "properties": { "name": "Nage", "url": "/en/waves-of-words", "count": "30"}, "geometry": { "type": "Point", "coordinates": [ 121.31, -8.70513 ] } },
{ "type": "Feature", "properties": { "name": "Unua", "url": "/en/waves-of-words", "count": "30"}, "geometry": { "type": "Point", "coordinates": [ 167.599, -16.2638 ] } },
{ "type": "Feature", "properties": { "name": "Oroha", "url": "/en/waves-of-words", "count": "30"}, "geometry": { "type": "Point", "coordinates": [ 161.513, -9.7386 ] } },
{ "type": "Feature", "properties": { "name": "Papitalai", "url": "/en/waves-of-words", "count": "30"}, "geometry": { "type": "Point", "coordinates": [ 147.417, -2.06222 ] } },
{ "type": "Feature", "properties": { "name": "Palauan", "url": "/en/waves-of-words", "count": "30"}, "geometry": { "type": "Point", "coordinates": [ 134.477, 7.34138 ] } },
{ "type": "Feature", "properties": { "name": "Padoe", "url": "/en/waves-of-words", "count": "30"}, "geometry": { "type": "Point", "coordinates": [ 121.236, -2.60642 ] } },
{ "type": "Feature", "properties": { "name": "Rerep", "url": "/en/waves-of-words", "count": "30"}, "geometry": { "type": "Point", "coordinates": [ 167.651, -16.2934 ] } },
{ "type": "Feature", "properties": { "name": "Vaeakau-Taumako", "url": "/en/waves-of-words", "count": "30"}, "geometry": { "type": "Point", "coordinates": [ 166.247, -10.1733 ] } },
{ "type": "Feature", "properties": { "name": "Pukapuka", "url": "/en/waves-of-words", "count": "30"}, "geometry": { "type": "Point", "coordinates": [ -165.83, -10.91 ] } },
{ "type": "Feature", "properties": { "name": "Polonombauk", "url": "/en/waves-of-words", "count": "30"}, "geometry": { "type": "Point", "coordinates": [ 167.09, -15.4653 ] } },
{ "type": "Feature", "properties": { "name": "Paulohi", "url": "/en/waves-of-words", "count": "30"}, "geometry": { "type": "Point", "coordinates": [ 128.779, -3.25404 ] } },
{ "type": "Feature", "properties": { "name": "Penrhyn", "url": "/en/waves-of-words", "count": "30"}, "geometry": { "type": "Point", "coordinates": [ -157.923, -9.08224 ] } },
{ "type": "Feature", "properties": { "name": "Ponosakan", "url": "/en/waves-of-words", "count": "30"}, "geometry": { "type": "Point", "coordinates": [ 124.712, 0.91716 ] } },
{ "type": "Feature", "properties": { "name": "Paicî", "url": "/en/waves-of-words", "count": "30"}, "geometry": { "type": "Point", "coordinates": [ 165.15, -21.096 ] } },
{ "type": "Feature", "properties": { "name": "Port Sandwich", "url": "/en/waves-of-words", "count": "30"}, "geometry": { "type": "Point", "coordinates": [ 167.78, -16.4952 ] } },
{ "type": "Feature", "properties": { "name": "Piamatsina", "url": "/en/waves-of-words", "count": "30"}, "geometry": { "type": "Point", "coordinates": [ 166.738, -14.9959 ] } },
{ "type": "Feature", "properties": { "name": "Port Vato", "url": "/en/waves-of-words", "count": "30"}, "geometry": { "type": "Point", "coordinates": [ 168.046, -16.3083 ] } },
{ "type": "Feature", "properties": { "name": "Gapapaiwa", "url": "/en/waves-of-words", "count": "30"}, "geometry": { "type": "Point", "coordinates": [ 149.854, -9.73317 ] } },
{ "type": "Feature", "properties": { "name": "Ramoaaina", "url": "/en/waves-of-words", "count": "30"}, "geometry": { "type": "Point", "coordinates": [ 152.451, -4.17306 ] } },
{ "type": "Feature", "properties": { "name": "Rarotongan", "url": "/en/waves-of-words", "count": "30"}, "geometry": { "type": "Point", "coordinates": [ -159.78, -21.23 ] } },
{ "type": "Feature", "properties": { "name": "Rapa", "url": "/en/waves-of-words", "count": "30"}, "geometry": { "type": "Point", "coordinates": [ -144.338, -27.6304 ] } },
{ "type": "Feature", "properties": { "name": "Roria", "url": "/en/waves-of-words", "count": "30"}, "geometry": { "type": "Point", "coordinates": [ 166.843, -15.4048 ] } },
{ "type": "Feature", "properties": { "name": "Roma", "url": "/en/waves-of-words", "count": "30"}, "geometry": { "type": "Point", "coordinates": [ 127.428, -7.58643 ] } },
{ "type": "Feature", "properties": { "name": "Roon", "url": "/en/waves-of-words", "count": "30"}, "geometry": { "type": "Point", "coordinates": [ 134.556, -2.43005 ] } },
{ "type": "Feature", "properties": { "name": "Ririo", "url": "/en/waves-of-words", "count": "30"}, "geometry": { "type": "Point", "coordinates": [ 156.92, -6.88927 ] } },
{ "type": "Feature", "properties": { "name": "Rotuman", "url": "/en/waves-of-words", "count": "30"}, "geometry": { "type": "Point", "coordinates": [ 177.066, -12.5008 ] } },
{ "type": "Feature", "properties": { "name": "Roviana", "url": "/en/waves-of-words", "count": "30"}, "geometry": { "type": "Point", "coordinates": [ 157.408, -8.20493 ] } },
{ "type": "Feature", "properties": { "name": "Rawo", "url": "/en/waves-of-words", "count": "30"}, "geometry": { "type": "Point", "coordinates": [ 141.603, -2.84201 ] } },
{ "type": "Feature", "properties": { "name": "Sasak", "url": "/en/waves-of-words", "count": "30"}, "geometry": { "type": "Point", "coordinates": [ 116.284, -8.58349 ] } },
{ "type": "Feature", "properties": { "name": "Sa", "url": "/en/waves-of-words", "count": "30"}, "geometry": { "type": "Point", "coordinates": [ 168.228, -15.9534 ] } },
{ "type": "Feature", "properties": { "name": "Simbo", "url": "/en/waves-of-words", "count": "30"}, "geometry": { "type": "Point", "coordinates": [ 156.541, -8.26947 ] } },
{ "type": "Feature", "properties": { "name": "Saliba", "url": "/en/waves-of-words", "count": "30"}, "geometry": { "type": "Point", "coordinates": [ 150.727, -10.6148 ] } },
{ "type": "Feature", "properties": { "name": "Serui-Laut", "url": "/en/waves-of-words", "count": "30"}, "geometry": { "type": "Point", "coordinates": [ 136.252, -1.87766 ] } },
{ "type": "Feature", "properties": { "name": "Sursurunga", "url": "/en/waves-of-words", "count": "30"}, "geometry": { "type": "Point", "coordinates": [ 152.768, -3.99078 ] } },
{ "type": "Feature", "properties": { "name": "Seke", "url": "/en/waves-of-words", "count": "30"}, "geometry": { "type": "Point", "coordinates": [ 168.197, -15.8839 ] } },
{ "type": "Feature", "properties": { "name": "Sika", "url": "/en/waves-of-words", "count": "30"}, "geometry": { "type": "Point", "coordinates": [ 122.38, -8.67302 ] } },
{ "type": "Feature", "properties": { "name": "Sakao", "url": "/en/waves-of-words", "count": "30"}, "geometry": { "type": "Point", "coordinates": [ 167.051, -15.0757 ] } },
{ "type": "Feature", "properties": { "name": "Sikaiana", "url": "/en/waves-of-words", "count": "30"}, "geometry": { "type": "Point", "coordinates": [ 162.73, -8.37819 ] } },
{ "type": "Feature", "properties": { "name": "Sekar", "url": "/en/waves-of-words", "count": "30"}, "geometry": { "type": "Point", "coordinates": [ 132.469, -2.65849 ] } },
{ "type": "Feature", "properties": { "name": "Selaru", "url": "/en/waves-of-words", "count": "30"}, "geometry": { "type": "Point", "coordinates": [ 130.961, -8.18376 ] } },
{ "type": "Feature", "properties": { "name": "Selayar", "url": "/en/waves-of-words", "count": "30"}, "geometry": { "type": "Point", "coordinates": [ 120.496, -6.10145 ] } },
{ "type": "Feature", "properties": { "name": "Samoan", "url": "/en/waves-of-words", "count": "30"}, "geometry": { "type": "Point", "coordinates": [ -171.83, -13.92 ] } },
{ "type": "Feature", "properties": { "name": "Simeulue", "url": "/en/waves-of-words", "count": "30"}, "geometry": { "type": "Point", "coordinates": [ 96.2757, 2.50288 ] } },
{ "type": "Feature", "properties": { "name": "Sumbawa", "url": "/en/waves-of-words", "count": "30"}, "geometry": { "type": "Point", "coordinates": [ 117.472, -8.71919 ] } },
{ "type": "Feature", "properties": { "name": "Sinaugoro", "url": "/en/waves-of-words", "count": "30"}, "geometry": { "type": "Point", "coordinates": [ 147.861, -9.79791 ] } },
{ "type": "Feature", "properties": { "name": "Nahavaq", "url": "/en/waves-of-words", "count": "30"}, "geometry": { "type": "Point", "coordinates": [ 167.477, -16.5116 ] } },
{ "type": "Feature", "properties": { "name": "Sobei", "url": "/en/waves-of-words", "count": "30"}, "geometry": { "type": "Point", "coordinates": [ 138.75, -1.86998 ] } },
{ "type": "Feature", "properties": { "name": "Solos", "url": "/en/waves-of-words", "count": "30"}, "geometry": { "type": "Point", "coordinates": [ 154.624, -5.41042 ] } },
{ "type": "Feature", "properties": { "name": "Serua", "url": "/en/waves-of-words", "count": "30"}, "geometry": { "type": "Point", "coordinates": [ 128.966, -3.21229 ] } },
{ "type": "Feature", "properties": { "name": "Seimat", "url": "/en/waves-of-words", "count": "30"}, "geometry": { "type": "Point", "coordinates": [ 145.074, -1.5297 ] } },
{ "type": "Feature", "properties": { "name": "So'a", "url": "/en/waves-of-words", "count": "30"}, "geometry": { "type": "Point", "coordinates": [ 121.048, -8.6778 ] } },
{ "type": "Feature", "properties": { "name": "Shark Bay", "url": "/en/waves-of-words", "count": "30"}, "geometry": { "type": "Point", "coordinates": [ 167.139, -15.2553 ] } },
{ "type": "Feature", "properties": { "name": "Sengseng", "url": "/en/waves-of-words", "count": "30"}, "geometry": { "type": "Point", "coordinates": [ 149.784, -6.16474 ] } },
{ "type": "Feature", "properties": { "name": "Serili", "url": "/en/waves-of-words", "count": "30"}, "geometry": { "type": "Point", "coordinates": [ 129.901, -8.11241 ] } },
{ "type": "Feature", "properties": { "name": "Suau", "url": "/en/waves-of-words", "count": "30"}, "geometry": { "type": "Point", "coordinates": [ 150.21, -10.6606 ] } },
{ "type": "Feature", "properties": { "name": "Sowa", "url": "/en/waves-of-words", "count": "30"}, "geometry": { "type": "Point", "coordinates": [ 168.187, -15.8265 ] } },
{ "type": "Feature", "properties": { "name": "Sawai", "url": "/en/waves-of-words", "count": "30"}, "geometry": { "type": "Point", "coordinates": [ 128.086, 0.51111 ] } },
{ "type": "Feature", "properties": { "name": "Takia", "url": "/en/waves-of-words", "count": "30"}, "geometry": { "type": "Point", "coordinates": [ 145.975, -4.69057 ] } },
{ "type": "Feature", "properties": { "name": "Tiang", "url": "/en/waves-of-words", "count": "30"}, "geometry": { "type": "Point", "coordinates": [ 150.935, -2.95505 ] } },
{ "type": "Feature", "properties": { "name": "Tawala", "url": "/en/waves-of-words", "count": "30"}, "geometry": { "type": "Point", "coordinates": [ 150.644, -10.3115 ] } },
{ "type": "Feature", "properties": { "name": "Tomadino", "url": "/en/waves-of-words", "count": "30"}, "geometry": { "type": "Point", "coordinates": [ 121.944, -2.56493 ] } },
{ "type": "Feature", "properties": { "name": "Tigak", "url": "/en/waves-of-words", "count": "30"}, "geometry": { "type": "Point", "coordinates": [ 150.893, -2.70951 ] } },
{ "type": "Feature", "properties": { "name": "Sudest", "url": "/en/waves-of-words", "count": "30"}, "geometry": { "type": "Point", "coordinates": [ 153.488, -11.5229 ] } },
{ "type": "Feature", "properties": { "name": "Tangoa", "url": "/en/waves-of-words", "count": "30"}, "geometry": { "type": "Point", "coordinates": [ 166.958, -15.5643 ] } },
{ "type": "Feature", "properties": { "name": "Nume", "url": "/en/waves-of-words", "count": "30"}, "geometry": { "type": "Point", "coordinates": [ 167.562, -14.209 ] } },
{ "type": "Feature", "properties": { "name": "Teop", "url": "/en/waves-of-words", "count": "30"}, "geometry": { "type": "Point", "coordinates": [ 154.971, -5.67474 ] } },
{ "type": "Feature", "properties": { "name": "Tunjung", "url": "/en/waves-of-words", "count": "30"}, "geometry": { "type": "Point", "coordinates": [ 115.883, -0.29048 ] } },
{ "type": "Feature", "properties": { "name": "Tikopia", "url": "/en/waves-of-words", "count": "30"}, "geometry": { "type": "Point", "coordinates": [ 168.822, -12.2766 ] } },
{ "type": "Feature", "properties": { "name": "Teanu", "url": "/en/waves-of-words", "count": "30"}, "geometry": { "type": "Point", "coordinates": [ 166.868, -11.6752 ] } },
{ "type": "Feature", "properties": { "name": "Taloki", "url": "/en/waves-of-words", "count": "30"}, "geometry": { "type": "Point", "coordinates": [ 122.872, -4.6478 ] } },
{ "type": "Feature", "properties": { "name": "Tolomako", "url": "/en/waves-of-words", "count": "30"}, "geometry": { "type": "Point", "coordinates": [ 166.772, -15.1569 ] } },
{ "type": "Feature", "properties": { "name": "Talise", "url": "/en/waves-of-words", "count": "30"}, "geometry": { "type": "Point", "coordinates": [ 160.231, -9.76764 ] } },
{ "type": "Feature", "properties": { "name": "Tambotalo", "url": "/en/waves-of-words", "count": "30"}, "geometry": { "type": "Point", "coordinates": [ 167.139, -15.5004 ] } },
{ "type": "Feature", "properties": { "name": "Avava", "url": "/en/waves-of-words", "count": "30"}, "geometry": { "type": "Point", "coordinates": [ 167.484, -16.2701 ] } },
{ "type": "Feature", "properties": { "name": "Tutuba", "url": "/en/waves-of-words", "count": "30"}, "geometry": { "type": "Point", "coordinates": [ 167.218, -15.4913 ] } },
{ "type": "Feature", "properties": { "name": "Tasmate", "url": "/en/waves-of-words", "count": "30"}, "geometry": { "type": "Point", "coordinates": [ 166.664, -15.0792 ] } },
{ "type": "Feature", "properties": { "name": "Tami", "url": "/en/waves-of-words", "count": "30"}, "geometry": { "type": "Point", "coordinates": [ 147.732, -6.70017 ] } },
{ "type": "Feature", "properties": { "name": "Kwamera", "url": "/en/waves-of-words", "count": "30"}, "geometry": { "type": "Point", "coordinates": [ 169.442, -19.5954 ] } },
{ "type": "Feature", "properties": { "name": "Lenakel", "url": "/en/waves-of-words", "count": "30"}, "geometry": { "type": "Point", "coordinates": [ 169.261, -19.4763 ] } },
{ "type": "Feature", "properties": { "name": "North Tanna", "url": "/en/waves-of-words", "count": "30"}, "geometry": { "type": "Point", "coordinates": [ 169.303, -19.3733 ] } },
{ "type": "Feature", "properties": { "name": "Tontemboan", "url": "/en/waves-of-words", "count": "30"}, "geometry": { "type": "Point", "coordinates": [ 124.654, 1.24813 ] } },
{ "type": "Feature", "properties": { "name": "Tanema", "url": "/en/waves-of-words", "count": "30"}, "geometry": { "type": "Point", "coordinates": [ 166.97, -11.68 ] } },
{ "type": "Feature", "properties": { "name": "Tongan", "url": "/en/waves-of-words", "count": "30"}, "geometry": { "type": "Point", "coordinates": [ -175.25, -21.17 ] } },
{ "type": "Feature", "properties": { "name": "Tarpia", "url": "/en/waves-of-words", "count": "30"}, "geometry": { "type": "Point", "coordinates": [ 140.115, -2.32228 ] } },
{ "type": "Feature", "properties": { "name": "Lehali", "url": "/en/waves-of-words", "count": "30"}, "geometry": { "type": "Point", "coordinates": [ 167.332, -13.5043 ] } },
{ "type": "Feature", "properties": { "name": "Akei", "url": "/en/waves-of-words", "count": "30"}, "geometry": { "type": "Point", "coordinates": [ 166.767, -15.6377 ] } },
{ "type": "Feature", "properties": { "name": "Tobati", "url": "/en/waves-of-words", "count": "30"}, "geometry": { "type": "Point", "coordinates": [ 140.71, -2.56434 ] } },
{ "type": "Feature", "properties": { "name": "Torau", "url": "/en/waves-of-words", "count": "30"}, "geometry": { "type": "Point", "coordinates": [ 155.496, -6.19922 ] } },
{ "type": "Feature", "properties": { "name": "Mutu", "url": "/en/waves-of-words", "count": "30"}, "geometry": { "type": "Point", "coordinates": [ 148.014, -5.79405 ] } },
{ "type": "Feature", "properties": { "name": "Vaghua", "url": "/en/waves-of-words", "count": "30"}, "geometry": { "type": "Point", "coordinates": [ 156.542, -6.68712 ] } },
{ "type": "Feature", "properties": { "name": "Tela-Masbuar", "url": "/en/waves-of-words", "count": "30"}, "geometry": { "type": "Point", "coordinates": [ 129.687, -8.01195 ] } },
{ "type": "Feature", "properties": { "name": "Totoli", "url": "/en/waves-of-words", "count": "30"}, "geometry": { "type": "Point", "coordinates": [ 120.875, 1.14995 ] } },
{ "type": "Feature", "properties": { "name": "Tonsea", "url": "/en/waves-of-words", "count": "30"}, "geometry": { "type": "Point", "coordinates": [ 125.052, 1.51393 ] } },
{ "type": "Feature", "properties": { "name": "Tugun", "url": "/en/waves-of-words", "count": "30"}, "geometry": { "type": "Point", "coordinates": [ 126.7, -7.72555 ] } },
{ "type": "Feature", "properties": { "name": "Ubir", "url": "/en/waves-of-words", "count": "30"}, "geometry": { "type": "Point", "coordinates": [ 149.396, -9.59044 ] } },
{ "type": "Feature", "properties": { "name": "Kioko", "url": "/en/waves-of-words", "count": "30"}, "geometry": { "type": "Point", "coordinates": [ 122.951, -4.99012 ] } },
{ "type": "Feature", "properties": { "name": "Ughele", "url": "/en/waves-of-words", "count": "30"}, "geometry": { "type": "Point", "coordinates": [ 157.341, -8.45725 ] } },
{ "type": "Feature", "properties": { "name": "Ulithian", "url": "/en/waves-of-words", "count": "30"}, "geometry": { "type": "Point", "coordinates": [ 139.604, 9.96139 ] } },
{ "type": "Feature", "properties": { "name": "Ura", "url": "/en/waves-of-words", "count": "30"}, "geometry": { "type": "Point", "coordinates": [ 151.953, -4.64226 ] } },
{ "type": "Feature", "properties": { "name": "Löyöp", "url": "/en/waves-of-words", "count": "30"}, "geometry": { "type": "Point", "coordinates": [ 167.336, -13.5406 ] } },
{ "type": "Feature", "properties": { "name": "Uruava", "url": "/en/waves-of-words", "count": "30"}, "geometry": { "type": "Point", "coordinates": [ 155.573, -6.23314 ] } },
{ "type": "Feature", "properties": { "name": "Vao", "url": "/en/waves-of-words", "count": "30"}, "geometry": { "type": "Point", "coordinates": [ 167.31, -15.8983 ] } },
{ "type": "Feature", "properties": { "name": "Iduna", "url": "/en/waves-of-words", "count": "30"}, "geometry": { "type": "Point", "coordinates": [ 150.24, -9.34361 ] } },
{ "type": "Feature", "properties": { "name": "Kulisusu", "url": "/en/waves-of-words", "count": "30"}, "geometry": { "type": "Point", "coordinates": [ 123.045, -4.58411 ] } },
{ "type": "Feature", "properties": { "name": "Kodeoha", "url": "/en/waves-of-words", "count": "30"}, "geometry": { "type": "Point", "coordinates": [ 120.937, -3.39566 ] } },
{ "type": "Feature", "properties": { "name": "Valpei", "url": "/en/waves-of-words", "count": "30"}, "geometry": { "type": "Point", "coordinates": [ 166.606, -14.712 ] } },
{ "type": "Feature", "properties": { "name": "Neve'ei", "url": "/en/waves-of-words", "count": "30"}, "geometry": { "type": "Point", "coordinates": [ 167.427, -16.2253 ] } },
{ "type": "Feature", "properties": { "name": "Vunapu", "url": "/en/waves-of-words", "count": "30"}, "geometry": { "type": "Point", "coordinates": [ 166.691, -14.8477 ] } },
{ "type": "Feature", "properties": { "name": "Varisi", "url": "/en/waves-of-words", "count": "30"}, "geometry": { "type": "Point", "coordinates": [ 156.655, -6.83443 ] } },
{ "type": "Feature", "properties": { "name": "Wab", "url": "/en/waves-of-words", "count": "30"}, "geometry": { "type": "Point", "coordinates": [ 146.461, -5.61216 ] } },
{ "type": "Feature", "properties": { "name": "Wandamen", "url": "/en/waves-of-words", "count": "30"}, "geometry": { "type": "Point", "coordinates": [ 133.996, -2.25622 ] } },
{ "type": "Feature", "properties": { "name": "Watubela", "url": "/en/waves-of-words", "count": "30"}, "geometry": { "type": "Point", "coordinates": [ 131.641, -4.47294 ] } },
{ "type": "Feature", "properties": { "name": "Wedau", "url": "/en/waves-of-words", "count": "30"}, "geometry": { "type": "Point", "coordinates": [ 150.172, -10.1246 ] } },
{ "type": "Feature", "properties": { "name": "Perai", "url": "/en/waves-of-words", "count": "30"}, "geometry": { "type": "Point", "coordinates": [ 126.576, -7.62349 ] } },
{ "type": "Feature", "properties": { "name": "Vitu", "url": "/en/waves-of-words", "count": "30"}, "geometry": { "type": "Point", "coordinates": [ 149.489, -4.69751 ] } },
{ "type": "Feature", "properties": { "name": "Wolio", "url": "/en/waves-of-words", "count": "30"}, "geometry": { "type": "Point", "coordinates": [ 122.67, -5.33 ] } },
{ "type": "Feature", "properties": { "name": "Wailapa", "url": "/en/waves-of-words", "count": "30"}, "geometry": { "type": "Point", "coordinates": [ 166.902, -15.5656 ] } },
{ "type": "Feature", "properties": { "name": "Baliledo", "url": "/en/waves-of-words", "count": "30"}, "geometry": { "type": "Point", "coordinates": [ 119.468, -9.69834 ] } },
{ "type": "Feature", "properties": { "name": "Wogeo", "url": "/en/waves-of-words", "count": "30"}, "geometry": { "type": "Point", "coordinates": [ 144.089, -3.20238 ] } },
{ "type": "Feature", "properties": { "name": "Wawonii", "url": "/en/waves-of-words", "count": "30"}, "geometry": { "type": "Point", "coordinates": [ 123.1, -4.13587 ] } },
{ "type": "Feature", "properties": { "name": "Waropen", "url": "/en/waves-of-words", "count": "30"}, "geometry": { "type": "Point", "coordinates": [ 136.633, -2.31142 ] } },
{ "type": "Feature", "properties": { "name": "Waru", "url": "/en/waves-of-words", "count": "30"}, "geometry": { "type": "Point", "coordinates": [ 122.058, -3.412 ] } },
{ "type": "Feature", "properties": { "name": "Wauyai", "url": "/en/waves-of-words", "count": "30"}, "geometry": { "type": "Point", "coordinates": [ 130.597, -0.2828 ] } },
{ "type": "Feature", "properties": { "name": "Dorig", "url": "/en/waves-of-words", "count": "30"}, "geometry": { "type": "Point", "coordinates": [ 167.55, -14.2916 ] } },
{ "type": "Feature", "properties": { "name": "Kambera", "url": "/en/waves-of-words", "count": "30"}, "geometry": { "type": "Point", "coordinates": [ 120.235, -9.88447 ] } },
{ "type": "Feature", "properties": { "name": "Koroni", "url": "/en/waves-of-words", "count": "30"}, "geometry": { "type": "Point", "coordinates": [ 121.977, -2.6367 ] } },
{ "type": "Feature", "properties": { "name": "Kumbewaha", "url": "/en/waves-of-words", "count": "30"}, "geometry": { "type": "Point", "coordinates": [ 123.154, -5.34485 ] } },
{ "type": "Feature", "properties": { "name": "Sio", "url": "/en/waves-of-words", "count": "30"}, "geometry": { "type": "Point", "coordinates": [ 147.353, -5.96037 ] } },
{ "type": "Feature", "properties": { "name": "Yapese", "url": "/en/waves-of-words", "count": "30"}, "geometry": { "type": "Point", "coordinates": [ 138.125, 9.55811 ] } },
{ "type": "Feature", "properties": { "name": "Yoke", "url": "/en/waves-of-words", "count": "30"}, "geometry": { "type": "Point", "coordinates": [ 138.028, -1.68798 ] } },
{ "type": "Feature", "properties": { "name": "Nyelâyu", "url": "/en/waves-of-words", "count": "30"}, "geometry": { "type": "Point", "coordinates": [ 163.66, -19.72 ] } },
{ "type": "Feature", "properties": { "name": "Iamalele", "url": "/en/waves-of-words", "count": "30"}, "geometry": { "type": "Point", "coordinates": [ 150.573, -9.45005 ] } },
{ "type": "Feature", "properties": { "name": "Torres Strait Islands", "url": "/en/waves-of-words", "count": "30"}, "geometry": { "type": "Point", "coordinates": [ 141.3100305, -10.015663 ] } },
{ "type": "Feature", "properties": { "name": "Rio de la Plata", "url": "/en/la-argentina-manuscrita", "count": "100", "addrtype": "place", "addrlocat": "city", "countn": 75}, "geometry": { "type": "Point", "coordinates": [ -57, -35 ] } },
{ "type": "Feature", "properties": { "name": "Juchipila", "url": "/en/familyl-etters", "count": "30"}, "geometry": { "type": "Point", "coordinates": [ -103.2564919, 21.3783266 ] } },
{ "type": "Feature", "properties": { "name": "Huapamacato", "url": "/en/family-letters", "count": "30"}, "geometry": { "type": "Point", "coordinates": [ -102.0846606, 20.1207106 ] } },
{ "type": "Feature", "properties": { "name": "Lincoln", "url": "/en/family-letters", "count": "30"}, "geometry": { "type": "Point", "coordinates": [ -96.8308147, 40.8007842 ] } },
{ "type": "Feature", "properties": { "name": "Havelock", "url": "/en/family-letters", "count": "30"}, "geometry": { "type": "Point", "coordinates": [ -96.6434493, 40.8533049 ] } },
{ "type": "Feature", "properties": { "name": "Fort_Lupton", "url": "/en/family-letters", "count": "30"}, "geometry": { "type": "Point", "coordinates": [ -104.8546916, 40.0715587 ] } },
{ "type": "Feature", "properties": { "name": "Denver", "url": "/en/family-letters", "count": "30"}, "geometry": { "type": "Point", "coordinates": [ -104.995198, 39.7645187 ] } },
{ "type": "Feature", "properties": { "name": "Longmont", "url": "/en/family-letters", "count": "30"}, "geometry": { "type": "Point", "coordinates": [ -105.167895, 40.1680691 ] } },
{ "type": "Feature", "properties": { "name": "Brighton", "url": "/en/family-letters", "count": "30"}, "geometry": { "type": "Point", "coordinates": [ -104.8710869, 39.9591895 ] } },
{ "type": "Feature", "properties": { "name": "La Grange", "url": "/en/family-letters", "count": "50"}, "geometry": { "type": "Point", "coordinates": [ -87.891815, 41.8050616 ] } },
{ "type": "Feature", "properties": { "name": "Camp Carson", "url": "/en/family-letters", "count": "30"}, "geometry": { "type": "Point", "coordinates": [ -105.9223295, 39.9560052 ] } },
{ "type": "Feature", "properties": { "name": "Churintzio", "url": "/en/family-letters", "count": "30"}, "geometry": { "type": "Point", "coordinates": [ -102.0654091, 20.1485008 ] } },
{ "type": "Feature", "properties": { "name": "Jos", "url": "/en/digital-nollywood", "count": "50", "addrtype": "place", "addrlocat": "city", "countn": 75}, "geometry": { "type": "Point", "coordinates": [ 8.8032963, 9.9155163 ] } },
{ "type": "Feature", "properties": { "name": "Aba", "url": "/en/digital-nollywood", "count": "50", "addrtype": "place", "addrlocat": "city", "countn": 75}, "geometry": { "type": "Point", "coordinates": [ 7.2969046, 5.1167963 ] } },
{ "type": "Feature", "properties": { "name": "University of Ibadan", "url": "/en/digital-nollywood", "count": "50"}, "geometry": { "type": "Point", "coordinates": [ 3.8972636, 7.4442646 ] } },
{ "type": "Feature", "properties": { "name": "Lagos", "url": "/en/digital-nollywood", "count": "50"}, "geometry": { "type": "Point", "coordinates": [ 3.1435269, 6.5483767 ] } },
{ "type": "Feature", "properties": { "name": "Biblioteca Nacional de España", "url": "/en/transcribe-estoria", "count": "100", "addrtype": "place", "addrlocat": "city", "countn": 75}, "geometry": { "type": "Point", "coordinates": [ -3.6916211, 40.4235049 ] } }
]
}
